[
  {
    "name": "Aberdeen",
    "aka": [
      "The Flagship"
    ],
    "visas": [
      "1.0",
      "3.0"
    ],
    "opening_date": "2010-10-01",
    "lat": 57.149457749999996,
    "long": -2.097896794130933,
    "address": "BrewDog Flagship, 17, Gallowgate, City Centre, Aberdeen City, Alba / Scotland, AB25 1EB, United Kingdom",
    "country": "GBR-SCT",
    "status": "open",
    "id": "aberdeen",
    "type": "bar",
    "city": "Aberdeen",
    "country_name": "Scotland"
  },
  {
    "name": "Aberdeen Castlegate",
    "city": "Aberdeen",
    "id": "castlegate",
    "opening_date": "2015-12-10",
    "visas": [
      "1.0",
      "3.0"
    ],
    "lat": 57.14756,
    "long": -2.094478,
    "references": [
      "Opening date, efp blog."
    ],
    "country": "GBR-SCT",
    "status": "open",
    "type": "bar",
    "country_name": "Scotland"
  },
  {
    "name": "Aberdeen Kennels",
    "city": "Aberdeen",
    "opening_date": "2019-11-19",
    "id": "aberdeen-kennels",
    "type": "doghouse",
    "visas": [
      "3.0"
    ],
    "lat": 57.147497,
    "long": -2.094706,
    "country": "GBR-SCT",
    "status": "open",
    "country_name": "Scotland"
  },
  {
    "name": "Aberdeen Union Square",
    "city": "Aberdeen",
    "id": "union-square",
    "opening_date": "2018-11-15",
    "visas": [
      "3.0"
    ],
    "lat": 57.1432179,
    "long": -2.0970865,
    "address": "BrewDog, Guild Street, City Centre, Aberdeen City, Alba / Scotland, AB11 5RG, United Kingdom",
    "country": "GBR-SCT",
    "status": "open",
    "type": "bar",
    "country_name": "Scotland"
  },
  {
    "name": "Amritsar",
    "country": "IND",
    "lat": 31.655359,
    "long": 74.860303,
    "status": "open",
    "id": "amritsar",
    "type": "bar",
    "city": "Amritsar",
    "country_name": "India"
  },
  {
    "name": "Amsterdam Centraal",
    "city": "Amsterdam",
    "country": "NLD",
    "opening_date": "2023-08-12",
    "lat": 52.3798313,
    "long": 4.9010123,
    "status": "open",
    "id": "amsterdam-centraal",
    "type": "bar",
    "country_name": "Netherlands"
  },
  {
    "name": "Angel",
    "aka": [
      "Dog Eat Dog",
      "Punk Kitchen"
    ],
    "status": "closed",
    "country": "GBR-ENG",
    "city": "London",
    "opening_date": "2015-10-15",
    "closing_date": "2019-09-00",
    "trivia": [
      "This bar originally opened as \"Dog Eat Dog\", with a restaurant licence.",
      "It later reopened as \"Punk Kitchen\" with rotating pop-up kitchens.",
      "It finally reopened as Brewdog Angel with equipment for customers to brew their own beer."
    ],
    "lat": 51.5369155,
    "long": -0.1013052,
    "address": "Dog Eat Dog, 29-31, Essex Road, Angel, Islington, London Borough of Islington, London, Greater London, England, N1 2SA, United Kingdom",
    "id": "angel",
    "type": "bar",
    "country_name": "England"
  },
  {
    "name": "Atlanta Outpost",
    "country": "USA",
    "city": "Atlanta",
    "type": "outpost",
    "opening_date": "2022-10-13",
    "lat": 33.756269,
    "long": -84.3649011,
    "status": "open",
    "id": "atlanta-outpost",
    "country_name": "United States"
  },
  {
    "name": "Barcelona",
    "country": "ESP",
    "opening_date": "2015-02-11",
    "visas": [
      "1.0"
    ],
    "lat": 41.3857301,
    "long": 2.1581661,
    "address": "Brewdog, Carrer de Casanova, l'Antiga Esquerra de l'Eixample, Eixample, Barcelona, Barcelon\u00e8s, Barcelona, Catalunya, 08011, Espa\u00f1a",
    "references": [
      "Opening Date, https://www.instagram.com/p/y-QwkVDqeC/?hl=en"
    ],
    "status": "open",
    "id": "barcelona",
    "type": "bar",
    "city": "Barcelona",
    "country_name": "Spain"
  },
  {
    "name": "Basingstoke",
    "city": "London",
    "country": "GBR-ENG",
    "opening_date": "2022-03-07",
    "lat": 51.2651426,
    "long": -1.0849505,
    "address": "BrewDog, Festival Place, Basingstoke, Basingstoke and Deane, Hampshire, England, RG21 7BE, United Kingdom",
    "status": "open",
    "id": "basingstoke",
    "type": "bar",
    "country_name": "England"
  },
  {
    "name": "Bath",
    "country": "GBR-ENG",
    "lat": 51.37837515,
    "long": -2.358202428618421,
    "address": "Brewdog, 20, St. Lawrence Street, Widcombe, Bath, Bath and North East Somerset, West of England, England, BA1 1AN, United Kingdom",
    "opening_date": "2021-08-19",
    "status": "open",
    "id": "bath",
    "type": "bar",
    "city": "Bath",
    "country_name": "England"
  },
  {
    "name": "Belfast Grand Central",
    "status": "open",
    "city": "Belfast",
    "opening_date": "2024-11-20",
    "country": "GBR-NIR",
    "lat": 54.594641,
    "long": -5.939604,
    "id": "belfast-grand-central",
    "type": "bar",
    "country_name": "Northern Ireland"
  },
  {
    "name": "Berlin Friedrichshain",
    "country": "DEU",
    "city": "Berlin",
    "opening_date": "2022-02-17",
    "lat": 52.5150559,
    "long": 13.4541734,
    "address": "Brewdog, 7, Warschauer Stra\u00dfe, Friedrichshain, Friedrichshain-Kreuzberg, Berlin, 10243, Deutschland",
    "status": "open",
    "id": "berlin-friedrichshain",
    "type": "bar",
    "country_name": "Germany"
  },
  {
    "name": "Berlin Mitte",
    "country": "DEU",
    "city": "Berlin",
    "opening_date": "2016-11-10",
    "visas": [
      "1.0"
    ],
    "lat": 52.5328688,
    "long": 13.3956502,
    "address": "Brewdog Mitte, 29, Ackerstra\u00dfe, Mitte, Berlin, 10115, Deutschland",
    "references": [
      "Opening Date, https://www.facebook.com/events/1588182331489080"
    ],
    "status": "open",
    "id": "berlin-mitte",
    "type": "bar",
    "country_name": "Germany"
  },
  {
    "name": "Birdcage",
    "country": "GBR-ENG",
    "city": "London",
    "type": "pub",
    "opening_date": "2021-04-00",
    "lat": 51.528299,
    "long": -0.071017,
    "status": "open",
    "id": "birdcage",
    "country_name": "England"
  },
  {
    "name": "Birmingham",
    "country": "GBR-ENG",
    "visas": [
      "1.0"
    ],
    "opening_date": "2012-12-12",
    "lat": 52.4771342,
    "long": -1.9015611,
    "address": "Brewdog, 81-87, John Bright Street, Chinese Quarter, Digbeth, Park Central, Birmingham, West Midlands, England, B1 1BL, United Kingdom",
    "status": "open",
    "id": "birmingham",
    "type": "bar",
    "city": "Birmingham",
    "country_name": "England"
  },
  {
    "name": "Bologna",
    "country": "ITA",
    "status": "closed",
    "opening_date": "2014-00-00",
    "closing_date": "2024-09-24",
    "visas": [
      "1.0"
    ],
    "lat": 44.4965237,
    "long": 11.3297482,
    "address": "BrewDog, 2f, Via San Valentino, Saragozza, Porto-Saragozza, Bologna, Emilia-Romagna, 40122, Italia",
    "references": [
      "Closing Date, brewdog forum post."
    ],
    "id": "bologna",
    "type": "bar",
    "city": "Bologna",
    "country_name": "Italy"
  },
  {
    "name": "Bottledog Edinburgh",
    "type": "bottledog",
    "country": "GBR-SCT",
    "status": "closed",
    "opening_date": "2015-10-08",
    "address": "25a Dundas St, Edinburgh, EH3 6QQ, United Kingdom",
    "lat": 55.9571393,
    "long": -3.1989582,
    "id": "bottledog-edinburgh",
    "city": "Edinburgh",
    "country_name": "Scotland"
  },
  {
    "name": "Bottledog King's Cross",
    "id": "bottledog-kgx",
    "aka": [
      "Bottledog Gray's Inn Road"
    ],
    "status": "closed",
    "country": "GBR-ENG",
    "city": "London",
    "type": "bottledog",
    "opening_date": "2014-04-00",
    "closing_date": "2017-01-00",
    "country_name": "England"
  },
  {
    "name": "Bournemouth",
    "country": "GBR-ENG",
    "opening_date": "2022-02-24",
    "lat": 50.7191731,
    "long": -1.8797387,
    "address": "BrewDog Bournemouth, Exeter Crescent, West Cliff, Bournemouth, Bournemouth, Christchurch and Poole, England, BH2 5DD, United Kingdom",
    "status": "open",
    "id": "bournemouth",
    "type": "bar",
    "city": "Bournemouth",
    "country_name": "England"
  },
  {
    "name": "Bradford",
    "country": "GBR-ENG",
    "opening_date": "2021-11-18",
    "closing_date": "2025-12-00",
    "lat": 53.7913899,
    "long": -1.7579432,
    "address": "BrewDog, 11, Great Horton Road, Great Horton, Bradford, West Yorkshire, England, BD7 1AJ, United Kingdom",
    "status": "closed",
    "id": "bradford",
    "type": "bar",
    "city": "Bradford",
    "country_name": "England"
  },
  {
    "name": "Brighton",
    "country": "GBR-ENG",
    "opening_date": "2015-08-27",
    "lat": 50.82454165,
    "long": -0.1353913025972917,
    "address": "Brewdog, 52-54, Grand Parade, Round Hill, Brighton, Brighton and Hove, England, BN2 9QA, United Kingdom",
    "references": [
      "Opening date, https://www.facebook.com/events/1620374728229140"
    ],
    "status": "open",
    "id": "brighton",
    "type": "bar",
    "city": "Brighton",
    "country_name": "England"
  },
  {
    "name": "Brisbane Fortitude Valley",
    "country": "AUS",
    "city": "Brisbane",
    "opening_date": "2022-11-10",
    "lat": -27.456814,
    "long": 153.0326635,
    "address": "BrewDog, Brunswick Street, Fortitude Valley, Greater Brisbane, Queensland, 4006, Australia",
    "status": "open",
    "id": "brisbane-fortitude-valley",
    "type": "bar",
    "country_name": "Australia"
  },
  {
    "name": "Bristol Baldwin Street",
    "city": "Bristol",
    "country": "GBR-ENG",
    "id": "bristol",
    "visas": [
      "1.0"
    ],
    "aka": [
      "Bristol"
    ],
    "opening_date": "2012-10-27",
    "lat": 51.45358455,
    "long": -2.5924938709160434,
    "address": "BrewDog, 58, Baldwin Street, Old City, City Centre, Bristol, City of Bristol, West of England, England, BS1 1QW, United Kingdom",
    "status": "open",
    "type": "bar",
    "country_name": "England"
  },
  {
    "name": "Bristol Harbourside",
    "city": "Bristol",
    "country": "GBR-ENG",
    "opening_date": "2022-07-21",
    "lat": 51.44972225,
    "long": -2.602288153154107,
    "address": "Brewdog, Millennium Promenade, Canon's Marsh, City Centre, Bristol, City of Bristol, West of England, England, BS1 5LW, United Kingdom",
    "status": "open",
    "id": "bristol-harbourside",
    "type": "bar",
    "country_name": "England"
  },
  {
    "name": "Brixton",
    "country": "GBR-ENG",
    "city": "London",
    "status": "closed",
    "opening_date": "2018-11-00",
    "closing_date": "2023-03-22",
    "lat": 51.461531,
    "long": -0.11317,
    "id": "brixton",
    "type": "bar",
    "country_name": "England"
  },
  {
    "name": "Brussels",
    "country": "BEL",
    "opening_date": "2015-09-19",
    "visas": [
      "1.0"
    ],
    "lat": 50.8460189,
    "long": 4.3570846,
    "address": "BrewDog Brussels, Putterie - Putterij, Quartier Saint-Jacques - Sint-Jacobswijk, Quartier du Centre - Centrumwijk, Pentagone - Vijfhoek, Bruxelles - Brussel, Brussel-Hoofdstad - Bruxelles-Capitale, R\u00e9gion de Bruxelles-Capitale - Brussels Hoofdstedelijk Gewest, 1000, Belgi\u00eb / Belgique / Belgien",
    "references": [
      "Opening Date, unclear if there was an efp night but https://www.morningadvertiser.co.uk/Article/2015/09/17/BrewDog-goes-to-Brussels."
    ],
    "status": "open",
    "id": "brussels",
    "type": "bar",
    "city": "Brussels",
    "country_name": "Belgium"
  },
  {
    "name": "Budapest",
    "status": "closed",
    "opening_date": "2018-11-16",
    "country": "HUN",
    "closing_date": "2020-00-00",
    "id": "budapest",
    "type": "bar",
    "city": "Budapest",
    "country_name": "Hungary"
  },
  {
    "name": "Cambridge",
    "country": "GBR-ENG",
    "opening_date": "2019-09-29",
    "lat": 52.20402,
    "long": 0.1186828,
    "address": "Brewdog, 15, Bene't Street, Newnham, Cambridge, Cambridgeshire, Cambridgeshire and Peterborough, England, CB2 3QN, United Kingdom",
    "status": "open",
    "id": "cambridge",
    "type": "bar",
    "city": "Cambridge",
    "country_name": "England"
  },
  {
    "name": "Camden",
    "city": "London",
    "country": "GBR-ENG",
    "opening_date": "2011-12-14",
    "lat": 51.53833055,
    "long": -0.14093251556267572,
    "visas": [
      "1.0"
    ],
    "references": [
      "Opening date from the 10 year Facebook event."
    ],
    "trivia": [
      "This was the first brewdog bar opened outside of Scotland.",
      "The Founders drove a tank down Camden High St to anounce the invasion."
    ],
    "address": "BrewDog, 113, Bayham Street, Chalk Farm, London Borough of Camden, London, Greater London, England, NW1 0AG, United Kingdom",
    "status": "open",
    "id": "camden",
    "type": "bar",
    "country_name": "England"
  },
  {
    "name": "Camden Road Arms",
    "city": "London",
    "country": "GBR-ENG",
    "id": "camden-road",
    "type": "pub",
    "opening_date": "2021-04-00",
    "lat": 51.5415402,
    "long": -0.1383177,
    "address": "Camden Road Arms, 102-106, Camden Road, Kentish Town, London Borough of Camden, London, Greater London, England, NW1 9EA, United Kingdom",
    "status": "open",
    "country_name": "England"
  },
  {
    "name": "Canary Wharf",
    "city": "London",
    "country": "GBR-ENG",
    "opening_date": "2018-10-00",
    "lat": 51.5046438,
    "long": -0.0146973,
    "address": "BrewDog, 2, Churchill Place, Canary Wharf, London Borough of Tower Hamlets, London, Greater London, England, E14 5RB, United Kingdom",
    "status": "open",
    "id": "canary-wharf",
    "type": "bar",
    "country_name": "England"
  },
  {
    "name": "Cardiff",
    "country": "GBR-WLS",
    "opening_date": "2014-00-00",
    "visas": [
      "1.0"
    ],
    "lat": 51.4787462,
    "long": -3.1792544,
    "address": "BrewDog Cardiff, 31, Westgate Street, Temperance Town, Castle, Cardiff, Cymru / Wales, CF10 1DD, United Kingdom",
    "status": "open",
    "id": "cardiff",
    "type": "bar",
    "city": "Cardiff",
    "country_name": "Wales [Cymru GB-CYM]"
  },
  {
    "name": "Carlisle",
    "country": "GBR-ENG",
    "opening_date": "2019-01-25",
    "lat": 54.8907497,
    "long": -2.9309043,
    "address": "Brewdog, Botchergate, Currock, Carlisle, Cumberland, England, CA1 1QS, United Kingdom",
    "references": [
      "Opening Date, unclear if there was an efp night, from forums."
    ],
    "status": "open",
    "id": "carlisle",
    "type": "bar",
    "city": "Carlisle",
    "country_name": "England"
  },
  {
    "name": "Chancery Lane",
    "city": "London",
    "country": "GBR-ENG",
    "opening_date": "2021-07-00",
    "lat": 51.5166863,
    "long": -0.1089721,
    "status": "open",
    "id": "chancery-lane",
    "type": "bar",
    "country_name": "England"
  },
  {
    "name": "Chandigarh",
    "status": "coming_soon",
    "country": "IND",
    "id": "chandigarh",
    "type": "bar",
    "city": "Chandigarh",
    "country_name": "India"
  },
  {
    "name": "Cheltenham",
    "country": "GBR-ENG",
    "opening_date": "2022-02-24",
    "lat": 51.903386600000005,
    "long": -2.076543395573728,
    "address": "BrewDog, Henrietta Street, Marle Hill, St Paul\u2019s, Cheltenham, Gloucestershire, England, GL50 4FA, United Kingdom",
    "status": "open",
    "id": "cheltenham",
    "type": "bar",
    "city": "Cheltenham",
    "country_name": "England"
  },
  {
    "name": "Ch\u00e2telet",
    "status": "never_opened",
    "country": "FRA",
    "city": "Paris",
    "id": "ch\u00e2telet",
    "type": "bar",
    "country_name": "France"
  },
  {
    "name": "Cincinnati",
    "country": "USA",
    "opening_date": "2019-11-14",
    "lat": 39.10870145,
    "long": -84.50909962578417,
    "address": "Brewdog Cincinnati, 316, Reading Road, Pendleton, Cincinnati, Hamilton County, Ohio, 45202, United States",
    "status": "open",
    "id": "cincinnati",
    "type": "bar",
    "city": "Cincinnati",
    "country_name": "United States"
  },
  {
    "name": "Clapham Junction",
    "status": "closed",
    "country": "GBR-ENG",
    "city": "London",
    "visas": [
      "1.0"
    ],
    "opening_date": "2014-08-14",
    "closing_date": "2023-03-22",
    "lat": 51.4608394,
    "long": -0.16302616606540343,
    "address": "Brewdog, 11-13, Battersea Rise, Clapham Junction, London Borough of Wandsworth, London, Greater London, England, SW11 1HG, United Kingdom",
    "id": "clapham-junction",
    "type": "bar",
    "country_name": "England"
  },
  {
    "name": "Clerkenwell",
    "city": "London",
    "country": "GBR-ENG",
    "visas": [
      "1.0"
    ],
    "opening_date": "2015-12-10",
    "lat": 51.5224247,
    "long": -0.1037538,
    "address": "BrewDog, 45-47, Clerkenwell Road, Clerkenwell Green, Islington, London Borough of Islington, London, Greater London, England, EC1M 5RS, United Kingdom",
    "status": "open",
    "id": "clerkenwell",
    "type": "bar",
    "country_name": "England"
  },
  {
    "name": "Cleveland Outpost",
    "country": "USA",
    "type": "outpost",
    "lat": 41.4925176,
    "long": -81.697733,
    "opening_date": "2021-12-02",
    "status": "open",
    "id": "cleveland-outpost",
    "city": "Cleveland",
    "country_name": "United States"
  },
  {
    "name": "Columbus Airport",
    "city": "Columbus",
    "country": "USA",
    "location": "airport",
    "opening_date": "2024-05-15",
    "lat": 39.998056,
    "long": -82.891944,
    "references": [
      "latlong: From wikipedia."
    ],
    "status": "open",
    "id": "columbus-airport",
    "type": "bar",
    "country_name": "United States"
  },
  {
    "name": "Cork",
    "status": "closed",
    "country": "IRL",
    "opening_date": "2022-07-21",
    "closing_date": "2023-05-01",
    "references": [
      "closing date, https://www.corkbeo.ie/news/local-news/corks-brewdog-closes-suddenly-after-26820707"
    ],
    "lat": 51.8976641,
    "long": -8.4793153,
    "address": "BrewDog Cork, 33-34, Washington Street, The Marsh, Centre B ED, Cork, County Cork, Munster, T12 XV61, \u00c9ire / Ireland",
    "id": "cork",
    "type": "bar",
    "city": "Cork",
    "country_name": "Ireland"
  },
  {
    "name": "Dalston",
    "city": "London",
    "country": "GBR-ENG",
    "status": "closed",
    "opening_date": "2019-10-16",
    "closing_date": "2022-08-30",
    "lat": 51.551807,
    "long": -0.07519,
    "id": "dalston",
    "type": "bar",
    "country_name": "England"
  },
  {
    "name": "Denver",
    "country": "USA",
    "opening_date": "2024-04-11",
    "lat": 39.7734696,
    "long": -104.972247,
    "address": "3950 Wynkoop St, Denver, CO 80216, USA",
    "status": "open",
    "id": "denver",
    "type": "bar",
    "city": "Denver",
    "country_name": "United States"
  },
  {
    "name": "Doghouse Columbus Hotel",
    "city": "Columbus",
    "country": "USA",
    "type": "doghouse",
    "lat": 39.847095,
    "long": -82.825525,
    "status": "open",
    "id": "doghouse-columbus-hotel",
    "country_name": "United States"
  },
  {
    "name": "Doghouse Edinburgh Bar & Terrace",
    "city": "Edinburgh",
    "type": "bar",
    "lat": 55.951296,
    "long": -3.182814,
    "country": "GBR-SCT",
    "status": "open",
    "id": "doghouse-edinburgh-bar-&-terrace",
    "country_name": "Scotland"
  },
  {
    "name": "Doghouse Edinburgh Hotel",
    "city": "Edinburgh",
    "type": "doghouse",
    "visas": [
      "3.0"
    ],
    "lat": 55.951283399999994,
    "long": -3.1828159580419566,
    "address": "BrewDog Edinburgh Doghouse, 5, New Street, Canongate, Old Town, City of Edinburgh, Alba / Scotland, EH8 8BH, United Kingdom",
    "opening_date": "2021-12-02",
    "country": "GBR-SCT",
    "status": "open",
    "id": "doghouse-edinburgh-hotel",
    "country_name": "Scotland"
  },
  {
    "name": "Doghouse Manchester",
    "country": "GBR-ENG",
    "type": "doghouse",
    "city": "Manchester",
    "lat": 53.4815873,
    "long": -2.2402715,
    "address": "BrewDog DogHouse Hotel, 18, Fountain Street, Central Retail District, City Centre, Manchester, Greater Manchester, England, M2 2AA, United Kingdom",
    "status": "open",
    "id": "doghouse-manchester",
    "country_name": "England"
  },
  {
    "name": "Dogtap Berlin",
    "country": "DEU",
    "city": "Berlin",
    "type": "dogtap",
    "opening_date": "2019-08-09",
    "lat": 52.4380374,
    "long": 13.368003,
    "address": "BrewDog DogTap Berlin, 23, Im Marienpark, Marienpark, Mariendorf, Tempelhof-Sch\u00f6neberg, Berlin, 12107, Deutschland",
    "status": "open",
    "id": "dogtap-berlin",
    "country_name": "Germany"
  },
  {
    "name": "Dogtap Brisbane",
    "country": "AUS",
    "type": "dogtap",
    "city": "Brisbane",
    "opening_date": "2019-11-20",
    "lat": -27.4484924,
    "long": 153.0998283,
    "address": "BrewDog DogTap, 77, Metroplex Avenue, Metroplex on Gateway, Murarrie, Brisbane City, Queensland, 4172, Australia",
    "status": "open",
    "id": "dogtap-brisbane",
    "country_name": "Australia"
  },
  {
    "name": "Dogtap Columbus",
    "city": "Columbus",
    "country": "USA",
    "type": "dogtap",
    "visas": [
      "1.0"
    ],
    "lat": 39.847095,
    "long": -82.825525,
    "status": "open",
    "id": "dogtap-columbus",
    "country_name": "United States"
  },
  {
    "name": "Dogtap Ellon",
    "aka": "Dogtap",
    "type": "dogtap",
    "visas": [
      "1.0",
      "3.0"
    ],
    "lat": 57.36949865,
    "long": -2.0506896373604544,
    "address": "Brewdog DogTap, Balmacassie Drive, Waterton, Ellon, Aberdeenshire, Alba / Scotland, AB41 8BX, United Kingdom",
    "country": "GBR-SCT",
    "status": "open",
    "id": "dogtap-ellon",
    "city": "Ellon",
    "country_name": "Scotland"
  },
  {
    "name": "Dubai Bluewaters",
    "country": "ARE",
    "city": "Dubai",
    "status": "coming_soon",
    "id": "dubai-bluewaters",
    "type": "bar",
    "country_name": "United Arab Emirates"
  },
  {
    "name": "Dublin Outpost",
    "country": "IRL",
    "type": "outpost",
    "opening_date": "2019-12-12",
    "lat": 53.344605650000005,
    "long": -6.23082120168573,
    "status": "open",
    "id": "dublin-outpost",
    "city": "Dublin",
    "country_name": "Ireland"
  },
  {
    "name": "Duke of Battersea",
    "status": "closed",
    "city": "London",
    "country": "GBR-ENG",
    "type": "pub",
    "address": "74-76 Battersea Bridge Road, London SW11 3AG",
    "lat": 51.478252,
    "long": -0.170143,
    "closing_date": "2024-01-17",
    "references": [
      "closing date, https://www.instagram.com/batterseabeat/p/C2MdnGaom8m/"
    ],
    "id": "duke-of-battersea",
    "country_name": "England"
  },
  {
    "name": "Duke of Hammersmith",
    "city": "London",
    "country": "GBR-ENG",
    "type": "pub",
    "lat": 51.49417,
    "long": -0.224139,
    "status": "open",
    "id": "duke-of-hammersmith",
    "country_name": "England"
  },
  {
    "name": "Dundee",
    "visas": [
      "1.0",
      "3.0"
    ],
    "opening_date": "2014-06-14",
    "lat": 56.4632348,
    "long": -2.9707948,
    "address": "BrewDog Dundee, Panmure Street, Central Waterfront, City Centre, Dundee, Dundee City, Alba / Scotland, DD1 2BW, United Kingdom",
    "country": "GBR-SCT",
    "status": "open",
    "id": "dundee",
    "type": "bar",
    "city": "Dundee",
    "country_name": "Scotland"
  },
  {
    "name": "Durham",
    "status": "coming_soon",
    "country": "GBR-ENG",
    "id": "durham",
    "type": "bar",
    "city": "Durham",
    "country_name": "England"
  },
  {
    "name": "Ealing",
    "city": "London",
    "country": "GBR-ENG",
    "opening_date": "2021-05-27",
    "lat": 51.5134063,
    "long": -0.3057929,
    "address": "BrewDog, Market Street, Dickens Yard, London Borough of Ealing, London, Greater London, England, W5 2TD, United Kingdom",
    "status": "open",
    "id": "ealing",
    "type": "bar",
    "country_name": "England"
  },
  {
    "name": "Edinburgh Airport",
    "city": "Edinburgh",
    "visas": [
      "3.0"
    ],
    "lat": 55.9489667,
    "long": -3.3617104,
    "address": "Brewdog, Jubilee Road, City of Edinburgh, Alba / Scotland, EH12 9DP, United Kingdom",
    "country": "GBR-SCT",
    "status": "open",
    "id": "edinburgh-airport",
    "type": "bar",
    "country_name": "Scotland"
  },
  {
    "name": "Edinburgh Cowgate",
    "id": "edinburgh",
    "city": "Edinburgh",
    "visas": [
      "1.0",
      "3.0"
    ],
    "opening_date": "2011-03-15",
    "lat": 55.9483708,
    "long": -3.189683,
    "address": "Brew Dog, 143, Cowgate, Abbeyhill, Old Town, City of Edinburgh, Alba / Scotland, EH1 1JS, United Kingdom",
    "references": [
      "Opening Date, https://thebeercast.com/2011/03/brewdog-edinburgh-opens.html"
    ],
    "country": "GBR-SCT",
    "status": "open",
    "type": "bar",
    "country_name": "Scotland"
  },
  {
    "name": "Edinburgh Lothian Road",
    "city": "Edinburgh",
    "visas": [
      "1.0",
      "3.0"
    ],
    "opening_date": "2018-01-26",
    "lat": 55.9474969,
    "long": -3.2065848,
    "address": "BrewDog Lothian Road, 50, Lothian Road, Lauriston, Tollcross, City of Edinburgh, Alba / Scotland, EH3 9BY, United Kingdom",
    "country": "GBR-SCT",
    "status": "open",
    "id": "edinburgh-lothian-road",
    "type": "bar",
    "country_name": "Scotland"
  },
  {
    "name": "Edinburgh Waverley",
    "city": "Edinburgh",
    "status": "open",
    "country": "GBR-SCT",
    "opening_date": "2024-10-30",
    "location": "train station",
    "lat": 55.95232125,
    "long": -3.1890094592314604,
    "address": "BrewDog, Waverley Concourse, Abbeyhill, Old Town, City of Edinburgh, Alba / Scotland, EH1 1BB, United Kingdom",
    "id": "edinburgh-waverley",
    "type": "bar",
    "country_name": "Scotland"
  },
  {
    "name": "Exeter",
    "country": "GBR-ENG",
    "opening_date": "2021-05-20",
    "lat": 50.72429245,
    "long": -3.5321861308460645,
    "address": "Brewdog, 12, Queen Street, St Thomas, Exeter, Devon, England, EX4 3HP, United Kingdom",
    "status": "open",
    "id": "exeter",
    "type": "bar",
    "city": "Exeter",
    "country_name": "England"
  },
  {
    "name": "Firenze",
    "country": "ITA",
    "status": "closed",
    "city": "Florence",
    "opening_date": "2014-06-26",
    "visas": [
      "1.0"
    ],
    "references": [
      "Opening Date, EFP Blog."
    ],
    "id": "firenze",
    "type": "bar",
    "country_name": "Italy"
  },
  {
    "name": "Frankfurt",
    "country": "DEU",
    "lat": 50.1085002,
    "long": 8.6694914,
    "address": "Brewdog, 51, Kaiserstra\u00dfe, Bahnhofsviertel, Innenstadt 1, Frankfurt am Main, Hessen, 60329, Deutschland",
    "opening_date": "2021-10-28",
    "closing_date": "2024-12-21",
    "status": "closed",
    "id": "frankfurt",
    "type": "bar",
    "city": "Frankfurt",
    "country_name": "Germany"
  },
  {
    "name": "Franklinton",
    "city": "Columbus",
    "country": "USA",
    "visas": [
      "1.0"
    ],
    "lat": 39.95719235,
    "long": -83.01235408942566,
    "address": "BrewDog, West Town Street, Franklinton, Columbus, Franklin County, Ohio, 43216, United States",
    "status": "open",
    "id": "franklinton",
    "type": "bar",
    "country_name": "United States"
  },
  {
    "name": "Gatwick Airport",
    "country": "GBR-ENG",
    "location": "airport",
    "city": "Gatwick",
    "lat": 51.1559449,
    "long": -0.1630408,
    "status": "open",
    "id": "gatwick-airport",
    "type": "bar",
    "country_name": "England"
  },
  {
    "name": "Glasgow Kelvingrove",
    "id": "glasgow",
    "city": "Glasgow",
    "visas": [
      "1.0",
      "3.0"
    ],
    "opening_date": "2011-07-23",
    "lat": 55.8682059,
    "long": -4.2921693,
    "address": "BrewDog, 1397, Argyle Street, Stobcross, Kelvinhaugh, Glasgow, Glasgow City, Alba / Scotland, G3 8AN, United Kingdom",
    "country": "GBR-SCT",
    "status": "open",
    "type": "bar",
    "country_name": "Scotland"
  },
  {
    "name": "Glasgow Merchant City",
    "aka": [
      "Doghouse Merchant City"
    ],
    "city": "Glasgow",
    "visas": [
      "1.0",
      "3.0"
    ],
    "lat": 55.8593516,
    "long": -4.2480192,
    "address": "BrewDog, 99, Hutcheson Street, Merchant City, Glasgow, Glasgow City, Alba / Scotland, G1 1SH, United Kingdom",
    "country": "GBR-SCT",
    "status": "open",
    "id": "glasgow-merchant-city",
    "type": "bar",
    "country_name": "Scotland"
  },
  {
    "name": "Gr\u00fcnerl\u00f8kka",
    "country": "SWE",
    "visas": [
      "1.0"
    ],
    "lat": 59.9199499,
    "long": 10.7572416,
    "address": "BD57, Markveien, Gr\u00fcnerl\u00f8kka, Oslo, 0550, Norge",
    "status": "open",
    "id": "gr\u00fcnerl\u00f8kka",
    "type": "bar",
    "city": "Gr\u00fcnerl\u00f8kka",
    "country_name": "Sweden"
  },
  {
    "name": "Gurugram",
    "country": "IND",
    "lat": 28.451069,
    "long": 77.097419,
    "status": "open",
    "id": "gurugram",
    "type": "bar",
    "city": "Gurugram",
    "country_name": "India"
  },
  {
    "name": "G\u00f6teborg",
    "country": "SWE",
    "visas": [
      "1.0"
    ],
    "lat": 57.7032368,
    "long": 11.9587442,
    "address": "BrewDog, 10b, Kungsgatan, Kungsh\u00f6jd, Inom Vallgraven, Centrum, G\u00f6teborg, G\u00f6teborgs Stad, V\u00e4stra G\u00f6talands l\u00e4n, 411 19, Sverige",
    "status": "open",
    "id": "g\u00f6teborg",
    "type": "bar",
    "city": "G\u00f6teborg",
    "country_name": "Sweden"
  },
  {
    "name": "Headingley",
    "country": "GBR-ENG",
    "city": "Leeds",
    "opening_date": "2022-10-29",
    "closing_date": "2023-02-00",
    "status": "closed",
    "lat": 53.82027495,
    "long": -1.5764136721196462,
    "address": "Brewdog/Red's True BBQ, 6a, Otley Road, Headingley Hill, Headingley, Leeds, West Yorkshire, England, LS6 2AD, United Kingdom",
    "id": "headingley",
    "type": "bar",
    "country_name": "England"
  },
  {
    "name": "Helsinki",
    "country": "FIN",
    "visas": [
      "1.0"
    ],
    "status": "closed",
    "opening_date": "2014-00-00",
    "closing_date": "2020-00-00",
    "references": [
      "Closing date, https://www.stadissa.fi/paikat/1646/brewdog-helsinki."
    ],
    "id": "helsinki",
    "type": "bar",
    "city": "Helsinki",
    "country_name": "Finland"
  },
  {
    "name": "Homerton",
    "country": "GBR-ENG",
    "city": "London",
    "status": "closed",
    "opening_date": "2016-01-02",
    "closing_date": "2017-05-00",
    "lat": 51.548223,
    "long": -0.047789,
    "references": [
      "Open date from Instagram, https://www.instagram.com/p/BNhbClEjceD/.",
      "Closure data from https://camra.org.uk/pubs/plough-homerton-156180."
    ],
    "id": "homerton",
    "type": "bar",
    "country_name": "England"
  },
  {
    "name": "Hong Kong",
    "country": "CHN",
    "lat": 22.28238,
    "long": 114.15483,
    "opening_date": "2023-10-20",
    "address": "BrewDog, 8, \u64fa\u82b1\u8857 Lyndhurst Terrace, SoHo, \u4e2d\u74b0 Central, \u4e2d\u897f\u5340 Central and Western District, \u9999\u6e2f\u5cf6 Hong Kong Island, \u9999\u6e2f Hong Kong, \u4e2d\u56fd",
    "references": [
      "Opening Date, the EFP night was nearly a month after soft launch so I've gone for the soft launch mentioned on the forum."
    ],
    "status": "open",
    "id": "hong-kong",
    "type": "bar",
    "city": "Hong Kong",
    "country_name": "China"
  },
  {
    "name": "Hop Hub",
    "status": "closed",
    "city": "Motherwell",
    "opening_date": "2019-12-14",
    "closing_date": "2022-08-30",
    "lat": 55.8253598,
    "long": -3.985760604430667,
    "address": "Brewdog Hop Hub, Condor Glen, Eurocentral Estate, Thankerton, Holytown, North Lanarkshire, Alba / Scotland, ML1 4UY, United Kingdom",
    "country": "GBR-SCT",
    "id": "hop-hub",
    "type": "bar",
    "country_name": "Scotland"
  },
  {
    "name": "Hop and Anchor",
    "status": "closed",
    "city": "Aberdeen",
    "type": "pub",
    "closing_date": "2022-08-30",
    "country": "GBR-SCT",
    "id": "hop-and-anchor",
    "country_name": "Scotland"
  },
  {
    "name": "Huddersfield",
    "country": "GBR-ENG",
    "opening_date": "2021-12-02",
    "lat": 53.6444833,
    "long": -1.7792205,
    "closing_date": "2025-01-00",
    "status": "closed",
    "address": "BrewDog Huddersfield, 29, Queensgate, Springwood, Aspley, Huddersfield, Kirklees, West Yorkshire, England, HD1 2RD, United Kingdom",
    "id": "huddersfield",
    "type": "bar",
    "city": "Huddersfield",
    "country_name": "England"
  },
  {
    "name": "Hull",
    "country": "GBR-ENG",
    "opening_date": "2022-04-07",
    "lat": 53.74197075,
    "long": -0.3386838986706515,
    "address": "BrewDog, 30G, Princes Dock Street, Old Town, Hull, Kingston upon Hull, England, HU1 2PQ, United Kingdom",
    "references": [
      "Opening Date, https://www.facebook.com/events/696531758464492"
    ],
    "status": "open",
    "id": "hull",
    "type": "bar",
    "city": "Hull",
    "country_name": "England"
  },
  {
    "name": "Indianapolis",
    "country": "USA",
    "status": "closed",
    "opening_date": "2019-09-11",
    "closing_date": "2022-04-19",
    "id": "indianapolis",
    "type": "bar",
    "city": "Indianapolis",
    "country_name": "United States"
  },
  {
    "name": "Inverurie",
    "country": "GBR-SCT",
    "opening_date": "2019-05-15",
    "visas": [
      "3.0"
    ],
    "lat": 57.2841068,
    "long": -2.3738167,
    "address": "Brewdog Inverurie, 22, Market Place, Port Elphinstone, Inverurie, Aberdeenshire, Alba / Scotland, AB51 3XN, United Kingdom",
    "status": "open",
    "id": "inverurie",
    "type": "bar",
    "city": "Inverurie",
    "country_name": "Scotland"
  },
  {
    "name": "Kijkduin",
    "country": "NLD",
    "lat": 52.0695245,
    "long": 4.2209237,
    "opening_date": "2024-06-20",
    "status": "open",
    "id": "kijkduin",
    "type": "bar",
    "city": "Kijkduin",
    "country_name": "Netherlands"
  },
  {
    "name": "Kungsholmen",
    "country": "SWE",
    "city": "Stockholm",
    "opening_date": "2013-05-00",
    "lat": 59.3362645,
    "long": 18.0342749,
    "address": "BrewDog Kungsholmen, Sankt Eriksgatan, Kungsholmen, Kungsholmens stadsdelsomr\u00e5de, Stockholm, Stockholms kommun, Stockholms l\u00e4n, 112 34, Sverige",
    "status": "open",
    "id": "kungsholmen",
    "type": "bar",
    "country_name": "Sweden"
  },
  {
    "name": "Las Vegas",
    "country": "USA",
    "opening_date": "2022-10-30",
    "lat": 36.1047,
    "long": -115.1725056,
    "address": "Brew Dog, South Las Vegas Boulevard, Las Vegas Strip, Paradise, Clark County, Nevada, 89158, United States",
    "status": "open",
    "id": "las-vegas",
    "type": "bar",
    "city": "Las Vegas",
    "country_name": "United States"
  },
  {
    "name": "Le Marais",
    "country": "FRA",
    "city": "Paris",
    "opening_date": "2019-03-28",
    "closing_date": "2025-01-04",
    "lat": 48.8588994,
    "long": 2.3621024,
    "address": "Brewdog, 1, Place de Thorigny, Quartier des Archives, Paris 3e Arrondissement, Paris, \u00cele-de-France, France m\u00e9tropolitaine, 75003, France",
    "references": [
      "Opening Date, https://www.facebook.com/events/1509963065807080",
      "Closing Date, https://www.facebook.com/BrewDogLeMarais/posts/pfbid0237uuQj2GPUHuCgXeMMLkXuGdM521weaVPdpCvLxHyG8R7JTXwRQKSYTkNTQxvubxl"
    ],
    "status": "closed",
    "id": "le-marais",
    "type": "bar",
    "country_name": "France"
  },
  {
    "name": "Leeds",
    "status": "closed",
    "country": "GBR-ENG",
    "visas": [
      "1.0"
    ],
    "lat": 53.7954815,
    "long": -1.5398508,
    "id": "leeds",
    "type": "bar",
    "city": "Leeds",
    "country_name": "England"
  },
  {
    "name": "Leeds North Street",
    "country": "GBR-ENG",
    "city": "Leeds",
    "opening_date": "2015-07-31",
    "visas": [
      "1.0"
    ],
    "lat": 53.801094,
    "long": -1.538821,
    "references": [
      "Opening Date, https://www.facebook.com/events/1468194026831923"
    ],
    "status": "open",
    "id": "leeds-north-street",
    "type": "bar",
    "country_name": "England"
  },
  {
    "name": "Leicester",
    "status": "closed",
    "country": "GBR-ENG",
    "city": "Leicester",
    "visas": [
      "1.0"
    ],
    "closing_date": "2023-03-00",
    "opening_date": "2015-04-15",
    "id": "leicester",
    "type": "bar",
    "country_name": "England"
  },
  {
    "name": "Liverpool",
    "country": "GBR-ENG",
    "visas": [
      "1.0"
    ],
    "opening_date": "2014-11-11",
    "lat": 53.4017596,
    "long": -2.9772471,
    "address": "BrewDog, 8, Colquitt Street, Ropewalks, Toxteth, Liverpool, Liverpool City Region, England, L1 4DE, United Kingdom",
    "references": [
      "Opening Date, facebook post."
    ],
    "status": "open",
    "id": "liverpool",
    "type": "bar",
    "city": "Liverpool",
    "country_name": "England"
  },
  {
    "name": "Malm\u00f6",
    "country": "SWE",
    "visas": [
      "1.0"
    ],
    "lat": 55.6047901,
    "long": 13.00514,
    "address": "Brewdog, 25, Baltzarsgatan, Gamla Staden, Norr, Malm\u00f6, Malm\u00f6 kommun, Sk\u00e5ne l\u00e4n, 211 37, Sverige",
    "status": "open",
    "id": "malm\u00f6",
    "type": "bar",
    "city": "Malm\u00f6",
    "country_name": "Sweden"
  },
  {
    "name": "Manchester Outpost",
    "country": "GBR-ENG",
    "type": "outpost",
    "city": "Manchester",
    "opening_date": "2019-06-20",
    "lat": 53.4677435,
    "long": -2.23523,
    "address": "Brewdog Outpost Manchester, 144, Oxford Road, Brunswick, Chorlton-on-Medlock, Manchester, Greater Manchester, England, M13 9GP, United Kingdom",
    "status": "open",
    "id": "manchester-outpost",
    "country_name": "England"
  },
  {
    "name": "Manchester Peter Street",
    "country": "GBR-ENG",
    "id": "manchester",
    "visas": [
      "1.0"
    ],
    "city": "Manchester",
    "opening_date": "2012-05-04",
    "references": [
      "Opening Date from https://www.brewbound.com/news/brewdog-marks-launch-of-manchester-craft-beer-bar-with-crap-beer-amnesty/."
    ],
    "trivia": [
      "Brewdog annouced a crap beer amnesty where people could exchange their cans of mainstream beer for a Brewdog beer."
    ],
    "lat": 53.4781428,
    "long": -2.2472464,
    "address": "BrewDog Manchester, 35, Peter Street, Civic Quarter, City Centre, Manchester, Greater Manchester, England, M2 5BG, United Kingdom",
    "status": "open",
    "type": "bar",
    "country_name": "England"
  },
  {
    "name": "Midtown Mumbai",
    "country": "IND",
    "city": "Mumbai",
    "status": "closed",
    "opening_date": "2022-03-12",
    "closing_date": "2024-11-19",
    "references": [
      "Closing date, https://www.ft.com/content/c8fd4deb-4e39-4aec-9a3b-361f5b63ae21"
    ],
    "id": "midtown-mumbai",
    "type": "bar",
    "country_name": "India"
  },
  {
    "name": "Milan",
    "country": "ITA",
    "status": "never_opened",
    "id": "milan",
    "type": "bar",
    "city": "Milan",
    "country_name": "Italy"
  },
  {
    "name": "Milton Keynes",
    "country": "GBR-ENG",
    "lat": 52.0386269,
    "long": -0.7629125,
    "address": "BrewDog, 316, Midsummer Boulevard, Central Milton Keynes, Milton Keynes, City of Milton Keynes, England, MK9 2EA, United Kingdom",
    "status": "open",
    "id": "milton-keynes",
    "type": "bar",
    "city": "Milton Keynes",
    "country_name": "England"
  },
  {
    "name": "Mumbai Bandra",
    "country": "IND",
    "city": "Mumbai",
    "status": "closed",
    "opening_date": "2022-03-24",
    "closing_date": "2024-11-19",
    "lat": 19.0682271,
    "long": 72.8317332,
    "address": "Brewdog, PD Hinduja Road (Khar Pali Road), Linking Road Shopping area, H/W Ward, Zone 3, Mumbai, Mumbai Suburban, Maharashtra, 400052, India",
    "references": [
      "Closing date, https://www.ft.com/content/c8fd4deb-4e39-4aec-9a3b-361f5b63ae21"
    ],
    "id": "mumbai-bandra",
    "type": "bar",
    "country_name": "India"
  },
  {
    "name": "New Albany",
    "country": "USA",
    "opening_date": "2021-08-19",
    "lat": 40.081048,
    "long": -82.808027,
    "status": "open",
    "id": "new-albany",
    "type": "bar",
    "city": "New Albany",
    "country_name": "United States"
  },
  {
    "name": "Newcastle",
    "country": "GBR-ENG",
    "visas": [
      "1.0"
    ],
    "lat": 54.9699233,
    "long": -1.609521,
    "address": "Brew Dog, 12-16, Dean Street, Grainger Town, Newcastle upon Tyne, Tyne and Wear, North East, England, NE1 1PG, United Kingdom",
    "status": "open",
    "id": "newcastle",
    "type": "bar",
    "city": "Newcastle",
    "country_name": "England"
  },
  {
    "name": "Nice",
    "country": "FRA",
    "lat": 43.6960274,
    "long": 7.269312,
    "address": "Brewdog, Avenue Max Gallo, Vieux Nice, Nice, Alpes-Maritimes, Provence-Alpes-C\u00f4te d'Azur, France m\u00e9tropolitaine, 06000, France",
    "closing_date": "2025-01-03",
    "status": "closed",
    "id": "nice",
    "type": "bar",
    "city": "Nice",
    "country_name": "France"
  },
  {
    "name": "Northcote Arms",
    "status": "closed",
    "type": "pub",
    "country": "GBR-ENG",
    "city": "London",
    "opening_date": "2021-04-00",
    "closing_date": "2024-04-13",
    "references": [
      "Closing Date, brewdog forum post."
    ],
    "id": "northcote-arms",
    "country_name": "England"
  },
  {
    "name": "Norwich",
    "country": "GBR-ENG",
    "visas": [
      "1.0"
    ],
    "lat": 52.630188,
    "long": 1.2975454,
    "address": "BrewDog, 1, Queen Street, Heigham Grove, Norwich, Norfolk, England, NR2 4SG, United Kingdom",
    "status": "open",
    "id": "norwich",
    "type": "bar",
    "city": "Norwich",
    "country_name": "England"
  },
  {
    "name": "Nottingham",
    "country": "GBR-ENG",
    "visas": [
      "1.0"
    ],
    "opening_date": "2012-02-28",
    "references": [
      "Opening Night: https://www.nottsbrew.co.uk/2012/02/brewdog-nottingham-opens-in-er-nottingham/"
    ],
    "lat": 52.9544714,
    "long": -1.1441262,
    "address": "BrewDog, 22, Broad Street, Lace Market, St Ann's, City of Nottingham, East Midlands, England, NG1 3AL, United Kingdom",
    "status": "open",
    "id": "nottingham",
    "type": "bar",
    "city": "Nottingham",
    "country_name": "England"
  },
  {
    "name": "Old Street",
    "aka": [
      "Old Street AF"
    ],
    "country": "GBR-ENG",
    "city": "London",
    "status": "closed",
    "opening_date": "2019-01-04",
    "closing_date": "2022-08-30",
    "lat": 51.5267058,
    "long": -0.0890357,
    "references": [
      "Closing date: https://forum.brewdog.com/t/bars-update-aug-22/47317"
    ],
    "id": "old-street",
    "type": "bar",
    "country_name": "England"
  },
  {
    "name": "Outpost Itaewon",
    "country": "KOR",
    "type": "outpost",
    "status": "open",
    "id": "outpost-itaewon",
    "city": "Itaewon",
    "country_name": "Korea, Republic of"
  },
  {
    "name": "Overworks Tap Room",
    "city": "Ellon",
    "status": "closed",
    "opening_date": "2018-04-13",
    "visas": [
      "1.0"
    ],
    "references": [
      "Opening Date, efp blog."
    ],
    "country": "GBR-SCT",
    "id": "overworks-tap-room",
    "type": "bar",
    "country_name": "Scotland"
  },
  {
    "name": "Oxford",
    "country": "GBR-ENG",
    "opening_date": "2017-09-28",
    "visas": [
      "1.0"
    ],
    "lat": 51.748072300000004,
    "long": -1.2372235021983062,
    "address": "Brewdog, 119, Cowley Road, East Oxford, Oxford, Oxfordshire, England, OX4 1DD, United Kingdom",
    "references": [
      "Opening date, https://www.facebook.com/events/120626565265994/?active_tab=discussion&locale=en_GB"
    ],
    "status": "open",
    "id": "oxford",
    "type": "bar",
    "city": "Oxford",
    "country_name": "England"
  },
  {
    "name": "Paddington",
    "country": "GBR-ENG",
    "city": "London",
    "lat": 51.5190539,
    "long": -0.1705643,
    "opening_date": "2019-03-13",
    "address": "Brewdog Paddington, Unit 1, Harbet Road, Paddington, London, Greater London, England, W2 1JX, United Kingdom",
    "references": [
      "Opening Date,https://www.facebook.com/profile/100063967326973 assuming there was an efp night."
    ],
    "status": "open",
    "id": "paddington",
    "type": "bar",
    "country_name": "England"
  },
  {
    "name": "Pentridge",
    "country": "AUS",
    "opening_date": "2022-11-24",
    "lat": -37.736826,
    "long": 144.968318,
    "address": "BrewDog Pentridge, 1, Champ Street, Coburg, Melbourne, City of Merri-bek, Victoria, 3058, Australia",
    "status": "open",
    "id": "pentridge",
    "type": "bar",
    "city": "Pentridge",
    "country_name": "Australia"
  },
  {
    "name": "Perth, Australia",
    "id": "perth-australia",
    "country": "AUS",
    "city": "Perth",
    "lat": -31.9483042,
    "long": 115.8472714,
    "status": "open",
    "type": "bar",
    "country_name": "Australia"
  },
  {
    "name": "Perth, Scotland",
    "id": "perth",
    "city": "Perth",
    "visas": [
      "3.0"
    ],
    "lat": 56.3980111,
    "long": -3.428065,
    "address": "BrewDog, 62, George Street, Bridgend, Perth, Perth and Kinross, Alba / Scotland, PH1 5LA, United Kingdom",
    "country": "GBR-SCT",
    "status": "open",
    "type": "bar",
    "country_name": "Scotland"
  },
  {
    "name": "Peterhead",
    "closing_date": "2022-08-30",
    "opening_date": "2019-03-00",
    "lat": 57.505068,
    "long": -1.780912,
    "country": "GBR-SCT",
    "status": "closed",
    "id": "peterhead",
    "type": "bar",
    "city": "Peterhead",
    "country_name": "Scotland"
  },
  {
    "name": "Pittsburgh",
    "status": "closed",
    "country": "USA",
    "lat": 40.4603851,
    "long": -79.9232191,
    "address": "BrewDog, 6144, Centre Avenue, Shadyside, East Liberty, Pittsburgh, Allegheny County, Pennsylvania, 15206, United States",
    "id": "pittsburgh",
    "type": "bar",
    "city": "Pittsburgh",
    "country_name": "United States"
  },
  {
    "name": "Ploenchit",
    "country": "THA",
    "opening_date": "2024-06-21",
    "lat": 13.743395,
    "long": 100.54614,
    "status": "open",
    "id": "ploenchit",
    "type": "bar",
    "city": "Ploenchit",
    "country_name": "Thailand"
  },
  {
    "name": "Plymouth",
    "country": "GBR-ENG",
    "lat": 50.3706714,
    "long": -4.1372805,
    "opening_date": "2021-05-21",
    "address": "Brewdog, Exeter Street, Barbican, Plymouth, England, PL4 0FE, United Kingdom",
    "status": "open",
    "id": "plymouth",
    "type": "bar",
    "city": "Plymouth",
    "country_name": "England"
  },
  {
    "name": "Queen Charlotte",
    "city": "London",
    "country": "GBR-ENG",
    "type": "pub",
    "lat": 51.519222,
    "long": -0.13576,
    "status": "open",
    "id": "queen-charlotte",
    "country_name": "England"
  },
  {
    "name": "Reading",
    "country": "GBR-ENG",
    "visas": [
      "1.0"
    ],
    "lat": 51.4535092,
    "long": -0.9743138,
    "address": "BrewDog, 11, Castle Street, Katesgrove, Coley, Reading, England, RG1 7SB, United Kingdom",
    "status": "open",
    "id": "reading",
    "type": "bar",
    "city": "Reading",
    "country_name": "England"
  },
  {
    "name": "Reykjavik",
    "country": "ISL",
    "lat": 64.14547,
    "long": -21.9246286,
    "address": "BrewDog, 8, Frakkast\u00edgur, Arnarh\u00f3ll, Mi\u00f0borg, Reykjav\u00edkurborg, H\u00f6fu\u00f0borgarsv\u00e6\u00f0i\u00f0, 101, \u00cdsland",
    "status": "open",
    "id": "reykjavik",
    "type": "bar",
    "city": "Reykjavik",
    "country_name": "Iceland"
  },
  {
    "name": "Roma",
    "country": "ITA",
    "status": "closed",
    "closing_date": "2021-05-04",
    "opening_date": "2015-12-00",
    "visas": [
      "1.0"
    ],
    "city": "Rome",
    "lat": 41.8917617,
    "long": 12.4929546,
    "address": "BrewDog Roma, 80, Via delle Terme di Tito, Monti, Municipio Roma I, Roma, Roma Capitale, Lazio, 00184, Italia",
    "id": "roma",
    "type": "bar",
    "country_name": "Italy"
  },
  {
    "name": "Roppongi",
    "country": "JPN",
    "visas": [
      "1.0"
    ],
    "lat": 35.662088,
    "long": 139.733442,
    "status": "open",
    "id": "roppongi",
    "type": "bar",
    "city": "Roppongi",
    "country_name": "Japan"
  },
  {
    "name": "Rotterdam Outpost",
    "city": "Rotterdam",
    "country": "NLD",
    "type": "outpost",
    "lat": 51.9228104,
    "long": 4.4810729,
    "address": "Brewdog Outpost Rotterdam, 1, Halvemaanpassage, Stadsdriehoek, Centrum, Rotterdam, Zuid-Holland, Nederland, 3011 DL, Nederland",
    "status": "open",
    "id": "rotterdam-outpost",
    "country_name": "Netherlands"
  },
  {
    "name": "Rotterdam Witte De Withstraat",
    "city": "Rotterdam",
    "opening_date": "2024-02-02",
    "country": "NLD",
    "lat": 51.9153699,
    "long": 4.4756906,
    "status": "open",
    "id": "rotterdam-witte-de-withstraat",
    "type": "bar",
    "country_name": "Netherlands"
  },
  {
    "name": "Seething Lane Tap",
    "country": "GBR-ENG",
    "city": "London",
    "id": "seething-lane",
    "type": "pub",
    "opening_date": "2021-04-00",
    "lat": 51.5100578,
    "long": -0.0793657,
    "status": "open",
    "country_name": "England"
  },
  {
    "name": "Seven Dials",
    "city": "London",
    "country": "GBR-ENG",
    "visas": [
      "1.0"
    ],
    "opening_date": "2018-02-00",
    "lat": 51.5133622,
    "long": -0.12862690929805623,
    "address": "Brewdog, 142, Shaftesbury Avenue, Seven Dials, Bloomsbury, London Borough of Camden, London, Greater London, England, WC2H 8HJ, United Kingdom",
    "status": "open",
    "id": "seven-dials",
    "type": "bar",
    "country_name": "England"
  },
  {
    "name": "Shanghai",
    "country": "CHN",
    "lat": 31.2295943,
    "long": 121.4620009,
    "closing_date": "2025-01-00",
    "status": "closed",
    "address": "Brewdog, 333, \u6210\u90fd\u5317\u8def, \u5357\u4eac\u897f\u8def\u8857\u9053, \u9759\u5b89\u533a, \u4e0a\u6d77\u5e02, 200003, \u4e2d\u56fd",
    "id": "shanghai",
    "type": "bar",
    "city": "Shanghai",
    "country_name": "China"
  },
  {
    "name": "Sheffield",
    "country": "GBR-ENG",
    "visas": [
      "1.0"
    ],
    "opening_date": "2014-03-08",
    "lat": 53.37957295,
    "long": -1.4772062373217931,
    "address": "BrewDog, 108-110, Devonshire Street, Devonshire, City Centre, Sheffield, South Yorkshire, England, S3 7SF, United Kingdom",
    "status": "open",
    "id": "sheffield",
    "type": "bar",
    "city": "Sheffield",
    "country_name": "England"
  },
  {
    "name": "Shepherd's Bush",
    "city": "London",
    "country": "GBR-ENG",
    "opening_date": "2013-12-02",
    "visas": [
      "1.0"
    ],
    "lat": 51.5029215,
    "long": -0.22388932746910667,
    "address": "BrewDog Shepherds Bush, 15-19, Goldhawk Road, Shepherd's Bush, London Borough of Hammersmith and Fulham, London, Greater London, England, W12 8QQ, United Kingdom",
    "references": [
      "Opening Date, https://www.restaurantonline.co.uk/Article/2013/12/02/BrewDog-craft-beer-bar-Shepherd-s-Bush-London/"
    ],
    "status": "open",
    "id": "shepherd's-bush",
    "type": "bar",
    "country_name": "England"
  },
  {
    "name": "Shoreditch",
    "city": "London",
    "country": "GBR-ENG",
    "opening_date": "2012-10-20",
    "visas": [
      "1.0"
    ],
    "lat": 51.524592,
    "long": -0.0726328,
    "address": "BrewDog, 51-55, Bethnal Green Road, Spitalfields, Whitechapel, London Borough of Tower Hamlets, London, Greater London, England, E1 6LA, United Kingdom",
    "status": "open",
    "id": "shoreditch",
    "type": "bar",
    "country_name": "England"
  },
  {
    "name": "Short North",
    "country": "USA",
    "city": "Columbus",
    "visas": [
      "1.0"
    ],
    "lat": 39.9863301,
    "long": -83.0055781,
    "address": "Brewdog Short North, 1175, North High Street, Dennison Place, Victorian Village, Columbus, Franklin County, Ohio, 43201, United States",
    "status": "open",
    "id": "short-north",
    "type": "bar",
    "country_name": "United States"
  },
  {
    "name": "Smithfield Market Arms",
    "city": "London",
    "type": "pub",
    "country": "GBR-ENG",
    "status": "closed",
    "opening_date": "2022-07-01",
    "closing_date": "2022-08-30",
    "lat": 51.519187,
    "long": -0.103694,
    "id": "smithfield-market-arms",
    "country_name": "England"
  },
  {
    "name": "Soho",
    "city": "London",
    "country": "GBR-ENG",
    "visas": [
      "1.0"
    ],
    "opening_date": "2015-11-04",
    "lat": 51.515085549999995,
    "long": -0.13713386030238833,
    "address": "BrewDog Soho, 21-22, Poland Street, Soho, London, Greater London, England, W1F 8QQ, United Kingdom",
    "references": [
      "Opening date, EFP Blog."
    ],
    "status": "open",
    "id": "soho",
    "type": "bar",
    "country_name": "England"
  },
  {
    "name": "South Eveleigh",
    "country": "AUS",
    "lat": -33.8942462,
    "long": 151.1964004,
    "opening_date": "2022-12-01",
    "address": "BrewDog, Innovation Plaza, South Eveleigh, Eveleigh, Sydney, Council of the City of Sydney, New South Wales, 2015, Australia",
    "status": "open",
    "id": "south-eveleigh",
    "type": "bar",
    "city": "South Eveleigh",
    "country_name": "Australia"
  },
  {
    "name": "Southampton",
    "country": "GBR-ENG",
    "visas": [
      "1.0"
    ],
    "lat": 50.9132647,
    "long": -1.4055695452341368,
    "address": "Brewdog Southampton, Upper Banister Street, Bedford Place, The Polygon, Southampton, England, SO15 2EF, United Kingdom",
    "status": "open",
    "id": "southampton",
    "type": "bar",
    "city": "Southampton",
    "country_name": "England"
  },
  {
    "name": "St Andrews",
    "visas": [
      "3.0"
    ],
    "lat": 56.3391725,
    "long": -2.7981352,
    "opening_date": "2019-08-01",
    "address": "Brewdog, 159, South Street, St Andrews, Fife, Alba / Scotland, KY16 9UP, United Kingdom",
    "country": "GBR-SCT",
    "status": "open",
    "id": "st-andrews",
    "type": "bar",
    "city": "St Andrews",
    "country_name": "Scotland"
  },
  {
    "name": "St Pauli",
    "country": "DEU",
    "city": "Hamburg",
    "opening_date": "2019-06-06",
    "lat": 53.5497853,
    "long": 9.9684853,
    "address": "BrewDog St. Pauli, 1, Reeperbahn, St. Pauli, Hamburg-Mitte, Hamburg, 20359, Deutschland",
    "status": "open",
    "id": "st-pauli",
    "type": "bar",
    "country_name": "Germany"
  },
  {
    "name": "Stirling",
    "visas": [
      "1.0",
      "3.0"
    ],
    "lat": 56.1188487,
    "long": -3.9389383,
    "address": "Brewdog, Baker Street, Top of the Town, Kings Park, Stirling, Alba / Scotland, FK8 1FW, United Kingdom",
    "country": "GBR-SCT",
    "status": "open",
    "id": "stirling",
    "type": "bar",
    "city": "Stirling",
    "country_name": "Scotland"
  },
  {
    "name": "Swansea",
    "country": "GBR-WLS",
    "status": "closed",
    "id": "swansea",
    "type": "bar",
    "city": "Swansea",
    "country_name": "Wales [Cymru GB-CYM]"
  },
  {
    "name": "S\u00e3o Paulo",
    "country": "BRA",
    "visas": [
      "1.0"
    ],
    "lat": -23.5612831,
    "long": -46.6939527,
    "address": "BrewDog Bar, 41, Rua Corop\u00e9, Pinheiros, Bairro de Pinheiros, S\u00e3o Paulo, Regi\u00e3o Imediata de S\u00e3o Paulo, Regi\u00e3o Metropolitana de S\u00e3o Paulo, Regi\u00e3o Geogr\u00e1fica Intermedi\u00e1ria de S\u00e3o Paulo, S\u00e3o Paulo, Regi\u00e3o Sudeste, 05426-010, Brasil",
    "status": "open",
    "id": "s\u00e3o-paulo",
    "type": "bar",
    "city": "S\u00e3o Paulo",
    "country_name": "Brazil"
  },
  {
    "name": "S\u00f6dermalm",
    "country": "SWE",
    "visas": [
      "1.0"
    ],
    "lat": 59.309259,
    "long": 18.0831237,
    "address": "Brewdog S\u00f6dermalm, Ringv\u00e4gen, Skanstull, S\u00f6dermalm, S\u00f6dermalms stadsdelsomr\u00e5de, Stockholm, Stockholms kommun, Stockholms l\u00e4n, 106 68, Sverige",
    "status": "open",
    "id": "s\u00f6dermalm",
    "type": "bar",
    "city": "S\u00f6dermalm",
    "country_name": "Sweden"
  },
  {
    "name": "Tallinn",
    "country": "EST",
    "visas": [
      "1.0"
    ],
    "status": "closed",
    "opening_date": "2017-04-00",
    "closing_date": "2024-08-30",
    "references": [
      "Closing date: https://naujienos.pricer.lt/world-famous-beer-hall-in-tallinn-to-close/",
      "Opening date: https://beertoday.co.uk/2017/04/20/brewdog-bar-tallinn-estonia-0417/"
    ],
    "id": "tallinn",
    "type": "bar",
    "city": "Tallinn",
    "country_name": "Estonia"
  },
  {
    "name": "Tampere",
    "country": "FIN",
    "status": "closed",
    "opening_date": "2018-00-00",
    "closing_date": "2020-00-00",
    "id": "tampere",
    "type": "bar",
    "city": "Tampere",
    "country_name": "Finland"
  },
  {
    "name": "The Tankard",
    "country": "GBR-ENG",
    "city": "London",
    "type": "pub",
    "status": "closed",
    "id": "the-tankard",
    "country_name": "England"
  },
  {
    "name": "Tower Bridge Arms",
    "country": "GBR-ENG",
    "city": "London",
    "type": "pub",
    "opening_date": "2021-04-00",
    "lat": 51.502884,
    "long": -0.076883,
    "status": "open",
    "id": "tower-bridge-arms",
    "country_name": "England"
  },
  {
    "name": "Tower Hill Outpost",
    "city": "London",
    "country": "GBR-ENG",
    "type": "outpost",
    "visas": [
      "1.0"
    ],
    "lat": 51.5099031,
    "long": -0.0807577,
    "trivia": [
      "The opening was marked by brewing a beer who's ingredients were chosen by dogs."
    ],
    "status": "open",
    "id": "tower-hill-outpost",
    "country_name": "England"
  },
  {
    "name": "Turku",
    "status": "closed",
    "country": "FIN",
    "opening_date": "2015-11-12",
    "id": "turku",
    "type": "bar",
    "city": "Turku",
    "country_name": "Finland"
  },
  {
    "name": "Upminster",
    "country": "GBR-ENG",
    "opening_date": "2022-11-10",
    "lat": 51.5568172,
    "long": 0.24980300959424057,
    "address": "BrewDog, 18, Station Road, Upminster, London Borough of Havering, London, Greater London, England, RM14 2UD, United Kingdom",
    "status": "open",
    "id": "upminster",
    "type": "bar",
    "city": "Upminster",
    "country_name": "England"
  },
  {
    "name": "Wandsworth",
    "city": "London",
    "country": "GBR-ENG",
    "opening_date": "2023-01-26",
    "lat": 51.4564848,
    "long": -0.19306213642621045,
    "address": "BrewDog Wandsworth, Garratt Lane, Wandsworth, London Borough of Wandsworth, London, Greater London, England, SW18 4TF, United Kingdom",
    "status": "open",
    "id": "wandsworth",
    "type": "bar",
    "country_name": "England"
  },
  {
    "name": "Warszawa",
    "country": "POL",
    "status": "closed",
    "opening_date": "2016-05-05",
    "references": [
      "Opening Date, https://www.instagram.com/p/BEu_D87Hgh0/?hl=en, unclear if they had an efp night."
    ],
    "id": "warszawa",
    "type": "bar",
    "city": "Warszawa",
    "country_name": "Poland"
  },
  {
    "name": "Waterloo",
    "city": "London",
    "country": "GBR-ENG",
    "location": "train station",
    "opening_date": "2022-08-12",
    "lat": 51.5021808,
    "long": -0.1154758,
    "address": "BrewDog, 1, Leake Street, South Bank, Waterloo, London Borough of Lambeth, London, Greater London, England, SE1 7PN, United Kingdom",
    "status": "open",
    "id": "waterloo",
    "type": "bar",
    "country_name": "England"
  },
  {
    "name": "Waterloo Arms",
    "city": "London",
    "country": "GBR-ENG",
    "type": "pub",
    "location": "train station",
    "opening_date": "2024-01-19",
    "lat": 51.502746,
    "long": -0.111338,
    "status": "open",
    "id": "waterloo-arms",
    "country_name": "England"
  },
  {
    "name": "Wiesbaden",
    "country": "DEU",
    "opening_date": "2021-07-15",
    "lat": 50.0821783,
    "long": 8.2408944,
    "address": "BrewDog Wiesbaden, 20, Marktstra\u00dfe, Mitte, Wiesbaden, Hessen, 65183, Deutschland",
    "status": "open",
    "id": "wiesbaden",
    "type": "bar",
    "city": "Wiesbaden",
    "country_name": "Germany"
  },
  {
    "name": "York",
    "country": "GBR-ENG",
    "opening_date": "2016-12-08",
    "visas": [
      "1.0"
    ],
    "lat": 53.9564099,
    "long": -1.0903855,
    "address": "BrewDog, 130-134, Micklegate, Bishophill, York, York and North Yorkshire, England, YO1 6JX, United Kingdom",
    "references": [
      "Opening Date, https://www.facebook.com/events/374393092906811"
    ],
    "status": "open",
    "id": "york",
    "type": "bar",
    "city": "York",
    "country_name": "England"
  }
]
